[{"areaId":8,"areaName":"渝中区","stationCount":10,"latitude":"29.560065","longtitude":"106.574987","cityId":"400000"},{"areaId":16,"areaName":"江北区","stationCount":48,"latitude":"29.617603","longtitude":"106.574412","cityId":"400000"},{"areaId":17,"areaName":"九龙坡区","stationCount":47,"latitude":"29.511197","longtitude":"106.51592","cityId":"400000"},{"areaId":18,"areaName":"南岸区","stationCount":32,"latitude":"29.530809","longtitude":"106.569387","cityId":"400000"},{"areaId":19,"areaName":"大渡口区","stationCount":15,"latitude":"29.490576","longtitude":"106.486025","cityId":"400000"},{"areaId":20,"areaName":"沙坪坝区","stationCount":42,"latitude":"29.549411","longtitude":"106.461303","cityId":"400000"},{"areaId":21,"areaName":"渝北区","stationCount":86,"latitude":"29.724203","longtitude":"106.636365","cityId":"400000"},{"areaId":22,"areaName":"北碚区","stationCount":39,"latitude":"29.812236","longtitude":"106.402374","cityId":"400000"},{"areaId":76,"areaName":"经开区","stationCount":16,"latitude":"31.430815","longtitude":"104.771968","cityId":"621000"},{"areaId":94,"areaName":"新密市","stationCount":1,"latitude":"34.403013","longtitude":"113.745326","cityId":"450000"},{"areaId":24,"areaName":"上城区","stationCount":2,"latitude":"30.248991","longtitude":"120.177606","cityId":"310000"},{"areaId":25,"areaName":"下城区","stationCount":1,"latitude":"30.287419","longtitude":"120.187955","cityId":"310000"},{"areaId":26,"areaName":"江干区","stationCount":9,"latitude":"30.263715","longtitude":"120.211526","cityId":"310000"},{"areaId":27,"areaName":"拱墅区","stationCount":4,"latitude":"30.324585","longtitude":"120.147423","cityId":"310000"},{"areaId":28,"areaName":"滨江区","stationCount":7,"latitude":"30.215042","longtitude":"120.22015","cityId":"310000"},{"areaId":29,"areaName":"萧山区","stationCount":1,"latitude":"30.188074","longtitude":"120.270168","cityId":"310000"},{"areaId":30,"areaName":"余杭区","stationCount":6,"latitude":"30.424039","longtitude":"120.305238","cityId":"310000"},{"areaId":77,"areaName":"涪城区","stationCount":47,"latitude":"31.461229","longtitude":"104.763706","cityId":"621000"},{"areaId":78,"areaName":"游仙区","stationCount":27,"latitude":"31.479954","longtitude":"104.772042","cityId":"621000"},{"areaId":79,"areaName":"高新区","stationCount":18,"latitude":"31.435589","longtitude":"104.596729","cityId":"621000"},{"areaId":80,"areaName":"科创园区","stationCount":15,"latitude":"31.492324","longtitude":"104.695729","cityId":"621000"},{"areaId":81,"areaName":"教育园区","stationCount":1,"latitude":"31.506254","longtitude":"104.687016","cityId":"621000"},{"areaId":86,"areaName":"中原区","stationCount":5,"latitude":"34.760013","longtitude":"113.61597","cityId":"450000"},{"areaId":87,"areaName":"二七区","stationCount":10,"latitude":"34.731538","longtitude":"113.645866","cityId":"450000"},{"areaId":88,"areaName":"管城回族区","stationCount":11,"latitude":"34.759775","longtitude":"113.683235","cityId":"450000"},{"areaId":89,"areaName":"金水区","stationCount":26,"latitude":"34.806263","longtitude":"113.666563","cityId":"450000"},{"areaId":91,"areaName":"惠济区","stationCount":2,"latitude":"34.874522","longtitude":"113.623444","cityId":"450000"},{"areaId":92,"areaName":"新郑市","stationCount":2,"latitude":"34.404562","longtitude":"113.747051","cityId":"450000"},{"areaId":93,"areaName":"中牟县","stationCount":1,"latitude":"34.726079","longtitude":"113.980466","cityId":"450000"},{"areaId":32,"areaName":"巴南区","stationCount":33,"latitude":"29.409055","longtitude":"106.544091","cityId":"400000"},{"areaId":40,"areaName":"青羊区","stationCount":7,"latitude":"30.681118","longtitude":"104.070031","cityId":"610000"},{"areaId":41,"areaName":"武侯区","stationCount":19,"latitude":"30.6508","longtitude":"104.047609","cityId":"610000"},{"areaId":42,"areaName":"锦江区","stationCount":9,"latitude":"30.662978","longtitude":"104.089866","cityId":"610000"},{"areaId":43,"areaName":"成华区","stationCount":15,"latitude":"30.666209","longtitude":"104.109125","cityId":"610000"},{"areaId":44,"areaName":"金牛区","stationCount":11,"latitude":"30.698509","longtitude":"104.057958","cityId":"610000"},{"areaId":45,"areaName":"温江区","stationCount":3,"latitude":"30.688696","longtitude":"103.863349","cityId":"610000"},{"areaId":46,"areaName":"新都区","stationCount":11,"latitude":"30.829461","longtitude":"104.165755","cityId":"610000"},{"areaId":47,"areaName":"青白江区","stationCount":1,"latitude":"30.886502","longtitude":"104.256879","cityId":"610000"},{"areaId":48,"areaName":"龙泉驿区","stationCount":4,"latitude":"30.56775","longtitude":"104.266652","cityId":"610000"},{"areaId":49,"areaName":"都江堰市","stationCount":1,"latitude":"31.000605","longtitude":"103.650343","cityId":"610000"},{"areaId":54,"areaName":"双流区","stationCount":14,"latitude":"30.57969","longtitude":"103.935501","cityId":"610000"},{"areaId":55,"areaName":"郫县","stationCount":6,"latitude":"30.802292","longtitude":"103.903306","cityId":"610000"},{"areaId":83,"areaName":"合川区","stationCount":6,"latitude":"29.98131","longtitude":"106.282217","cityId":"400000"},{"areaId":84,"areaName":"璧山区","stationCount":7,"latitude":"29.602182","longtitude":"106.232774","cityId":"400000"},{"areaId":23,"areaName":"西湖区","stationCount":11,"latitude":"30.267084","longtitude":"120.135822","cityId":"310000"},{"areaId":60,"areaName":"济水街道","stationCount":10,"latitude":"35.095794","longtitude":"112.613605","cityId":"459000"},{"areaId":61,"areaName":"沁园街道","stationCount":17,"latitude":"35.082799","longtitude":"112.6034","cityId":"459000"},{"areaId":62,"areaName":"北海街道","stationCount":7,"latitude":"35.114694","longtitude":"112.602969","cityId":"459000"},{"areaId":63,"areaName":"天坛街道","stationCount":9,"latitude":"35.087052","longtitude":"112.55676","cityId":"459000"},{"areaId":64,"areaName":"玉泉街道","stationCount":7,"latitude":"35.104536","longtitude":"112.63114","cityId":"459000"},{"areaId":65,"areaName":"克井镇","stationCount":4,"latitude":"35.166821","longtitude":"112.550364","cityId":"459000"},{"areaId":66,"areaName":"五龙口镇","stationCount":13,"latitude":"35.141381","longtitude":"112.69553","cityId":"459000"},{"areaId":67,"areaName":"梨林镇","stationCount":1,"latitude":"35.083685","longtitude":"112.720252","cityId":"459000"},{"areaId":68,"areaName":"轵城镇","stationCount":8,"latitude":"35.048054","longtitude":"112.586871","cityId":"459000"},{"areaId":69,"areaName":"承留镇","stationCount":4,"latitude":"35.082976","longtitude":"112.506096","cityId":"459000"},{"areaId":70,"areaName":"坡头镇","stationCount":1,"latitude":"34.934775","longtitude":"112.531144","cityId":"459000"},{"areaId":73,"areaName":"思礼镇","stationCount":1,"latitude":"35.107253","longtitude":"112.513857","cityId":"459000"},{"areaId":null,"areaName":null,"stationCount":1,"latitude":null,"longtitude":null,"cityId":null},{"areaId":null,"areaName":null,"stationCount":7,"latitude":null,"longtitude":null,"cityId":null}]